[
  {
    "id": "blr-001",
    "title": "Prestige Lakeside Habitat",
    "city": "Bangalore",
    "locality": "Whitefield",
    "bhk": 3,
    "price_inr": 11500000,
    "price_per_sqft": 6800,
    "sqft": 1690,
    "property_type": "apartment",
    "builder": "Prestige Group",
    "possession": "Ready to move",
    "lat": 12.952443,
    "lng": 77.749876,
    "tags": ["gated", "metro_nearby", "clubhouse", "swimming_pool"]
  },
  {
    "id": "blr-002",
    "title": "Brigade Cornerstone Utopia",
    "city": "Bangalore",
    "locality": "Varthur",
    "bhk": 3,
    "price_inr": 9800000,
    "price_per_sqft": 6200,
    "sqft": 1580,
    "property_type": "apartment",
    "builder": "Brigade Group",
    "possession": "Ready to move",
    "lat": 12.946352,
    "lng": 77.747231,
    "tags": ["gated", "metro_nearby", "park_facing"]
  },
  {
    "id": "blr-003",
    "title": "Sobha Dream Acres",
    "city": "Bangalore",
    "locality": "Panathur",
    "bhk": 2,
    "price_inr": 7200000,
    "price_per_sqft": 7500,
    "sqft": 960,
    "property_type": "apartment",
    "builder": "Sobha Limited",
    "possession": "Ready to move",
    "lat": 12.937215,
    "lng": 77.712612,
    "tags": ["gated", "metro_nearby", "green_campus"]
  },
  {
    "id": "blr-004",
    "title": "Purva Palm Beach",
    "city": "Bangalore",
    "locality": "Marathahalli",
    "bhk": 3,
    "price_inr": 10500000,
    "price_per_sqft": 7100,
    "sqft": 1480,
    "property_type": "apartment",
    "builder": "Puravankara",
    "possession": "Ready to move",
    "lat": 12.959142,
    "lng": 77.697415,
    "tags": ["gated", "lake_view", "metro_nearby"]
  },
  {
    "id": "blr-005",
    "title": "Assetz Marq",
    "city": "Bangalore",
    "locality": "Whitefield",
    "bhk": 2,
    "price_inr": 8500000,
    "price_per_sqft": 7800,
    "sqft": 1090,
    "property_type": "apartment",
    "builder": "Assetz Property",
    "possession": "Under construction",
    "lat": 12.994512,
    "lng": 77.781611,
    "tags": ["gated", "metro_nearby", "smart_home"]
  },
  {
    "id": "blr-006",
    "title": "Godrej United",
    "city": "Bangalore",
    "locality": "Whitefield",
    "bhk": 3,
    "price_inr": 12800000,
    "price_per_sqft": 8200,
    "sqft": 1560,
    "property_type": "apartment",
    "builder": "Godrej Properties",
    "possession": "Ready to move",
    "lat": 12.994610670164198,
    "lng": 77.70551278539979,
    "tags": ["gated", "metro_nearby", "premium", "clubhouse"]
  },
  {
    "id": "blr-007",
    "title": "Century Ethos",
    "city": "Bangalore",
    "locality": "Indiranagar",
    "bhk": 3,
    "price_inr": 18500000,
    "price_per_sqft": 12500,
    "sqft": 1480,
    "property_type": "apartment",
    "builder": "Century Real Estate",
    "possession": "Ready to move",
    "lat": 12.978432,
    "lng": 77.640821,
    "tags": ["gated", "metro_nearby", "central", "premium"]
  },
  {
    "id": "blr-008",
    "title": "Salarpuria Sattva Greenage",
    "city": "Bangalore",
    "locality": "Electronic City",
    "bhk": 3,
    "price_inr": 9200000,
    "price_per_sqft": 5800,
    "sqft": 1585,
    "property_type": "apartment",
    "builder": "Salarpuria Sattva",
    "possession": "Ready to move",
    "lat": 12.912612,
    "lng": 77.638514,
    "tags": ["gated", "it_hub_nearby", "green_campus"]
  },
  {
    "id": "blr-009",
    "title": "Mana Capitol",
    "city": "Bangalore",
    "locality": "Sarjapur Road",
    "bhk": 3,
    "price_inr": 11800000,
    "price_per_sqft": 6900,
    "sqft": 1710,
    "property_type": "apartment",
    "builder": "Mana Projects",
    "possession": "Ready to move",
    "lat": 12.906421,
    "lng": 77.682312,
    "tags": ["gated", "schools_nearby", "clubhouse"]
  },
  {
    "id": "blr-010",
    "title": "Embassy Lake Terraces",
    "city": "Bangalore",
    "locality": "Hebbal",
    "bhk": 4,
    "price_inr": 22000000,
    "price_per_sqft": 9800,
    "sqft": 2245,
    "property_type": "apartment",
    "builder": "Embassy Group",
    "possession": "Ready to move",
    "lat": 13.039215,
    "lng": 77.595612,
    "tags": ["gated", "lake_view", "premium", "metro_nearby"]
  },
  {
    "id": "blr-011",
    "title": "Total Environment Down by the Water",
    "city": "Bangalore",
    "locality": "Bellandur",
    "bhk": 3,
    "price_inr": 16500000,
    "price_per_sqft": 9200,
    "sqft": 1793,
    "property_type": "villa",
    "builder": "Total Environment",
    "possession": "Ready to move",
    "lat": 12.926012,
    "lng": 77.676145,
    "tags": ["gated", "lake_view", "premium", "green_campus"]
  },
  {
    "id": "blr-012",
    "title": "Provident Park Square",
    "city": "Bangalore",
    "locality": "Kanakapura Road",
    "bhk": 2,
    "price_inr": 5500000,
    "price_per_sqft": 5200,
    "sqft": 1058,
    "property_type": "apartment",
    "builder": "Provident Housing",
    "possession": "Ready to move",
    "lat": 12.876512,
    "lng": 77.543211,
    "tags": ["gated", "budget_friendly", "metro_nearby"]
  },
  {
    "id": "blr-013",
    "title": "Mahindra Lifespaces Eden",
    "city": "Bangalore",
    "locality": "Kanakapura Road",
    "bhk": 3,
    "price_inr": 8900000,
    "price_per_sqft": 6100,
    "sqft": 1459,
    "property_type": "apartment",
    "builder": "Mahindra Lifespaces",
    "possession": "Under construction",
    "lat": 12.868742,
    "lng": 77.534215,
    "tags": ["gated", "metro_nearby", "green_campus"]
  },
  {
    "id": "blr-014",
    "title": "Prestige Falcon City",
    "city": "Bangalore",
    "locality": "Kanakapura Road",
    "bhk": 3,
    "price_inr": 10200000,
    "price_per_sqft": 6400,
    "sqft": 1594,
    "property_type": "apartment",
    "builder": "Prestige Group",
    "possession": "Ready to move",
    "lat": 12.871212,
    "lng": 77.572145,
    "tags": ["gated", "metro_nearby", "township", "schools_nearby"]
  },
  {
    "id": "blr-015",
    "title": "Brigade El Dorado",
    "city": "Bangalore",
    "locality": "Bagalur",
    "bhk": 2,
    "price_inr": 4800000,
    "price_per_sqft": 4800,
    "sqft": 1000,
    "property_type": "apartment",
    "builder": "Brigade Group",
    "possession": "Ready to move",
    "lat": 13.189512,
    "lng": 77.691245,
    "tags": ["gated", "budget_friendly", "airport_nearby"]
  },
  {
    "id": "mum-001",
    "title": "Lodha Amara",
    "city": "Mumbai",
    "locality": "Thane West",
    "bhk": 3,
    "price_inr": 19500000,
    "price_per_sqft": 18500,
    "sqft": 1054,
    "property_type": "apartment",
    "builder": "Lodha Group",
    "possession": "Ready to move",
    "lat": 19.2183,
    "lng": 72.9781,
    "tags": ["gated", "metro_nearby", "township", "clubhouse"]
  },
  {
    "id": "mum-002",
    "title": "Runwal Gardens",
    "city": "Mumbai",
    "locality": "Dombivli",
    "bhk": 2,
    "price_inr": 7800000,
    "price_per_sqft": 8200,
    "sqft": 951,
    "property_type": "apartment",
    "builder": "Runwal Group",
    "possession": "Ready to move",
    "lat": 19.2094,
    "lng": 73.0939,
    "tags": ["gated", "budget_friendly", "metro_nearby"]
  },
  {
    "id": "mum-003",
    "title": "Godrej City Panvel",
    "city": "Mumbai",
    "locality": "Panvel",
    "bhk": 2,
    "price_inr": 6200000,
    "price_per_sqft": 7500,
    "sqft": 827,
    "property_type": "apartment",
    "builder": "Godrej Properties",
    "possession": "Under construction",
    "lat": 18.9894,
    "lng": 73.1175,
    "tags": ["gated", "budget_friendly", "township"]
  },
  {
    "id": "mum-004",
    "title": "Raheja Exotica",
    "city": "Mumbai",
    "locality": "Malad West",
    "bhk": 3,
    "price_inr": 24500000,
    "price_per_sqft": 22000,
    "sqft": 1114,
    "property_type": "apartment",
    "builder": "K Raheja Corp",
    "possession": "Ready to move",
    "lat": 19.1860,
    "lng": 72.8481,
    "tags": ["gated", "metro_nearby", "premium", "sea_view"]
  },
  {
    "id": "pune-001",
    "title": "Kolte Patil Life Republic",
    "city": "Pune",
    "locality": "Hinjewadi",
    "bhk": 3,
    "price_inr": 9500000,
    "price_per_sqft": 7200,
    "sqft": 1319,
    "property_type": "apartment",
    "builder": "Kolte-Patil",
    "possession": "Ready to move",
    "lat": 18.5912,
    "lng": 73.7389,
    "tags": ["gated", "it_hub_nearby", "township", "schools_nearby"]
  },
  {
    "id": "pune-002",
    "title": "VTP Blue Waters",
    "city": "Pune",
    "locality": "Mahalunge",
    "bhk": 2,
    "price_inr": 5800000,
    "price_per_sqft": 6500,
    "sqft": 892,
    "property_type": "apartment",
    "builder": "VTP Realty",
    "possession": "Ready to move",
    "lat": 18.5789,
    "lng": 73.7512,
    "tags": ["gated", "budget_friendly", "it_hub_nearby"]
  },
  {
    "id": "pune-003",
    "title": "Godrej Infinity",
    "city": "Pune",
    "locality": "Keshav Nagar",
    "bhk": 3,
    "price_inr": 14200000,
    "price_per_sqft": 9800,
    "sqft": 1449,
    "property_type": "apartment",
    "builder": "Godrej Properties",
    "possession": "Ready to move",
    "lat": 18.5367,
    "lng": 73.9067,
    "tags": ["gated", "river_view", "premium", "metro_nearby"]
  },
  {
    "id": "hyd-001",
    "title": "Aparna Sarovar Grande",
    "city": "Hyderabad",
    "locality": "Nallagandla",
    "bhk": 3,
    "price_inr": 10800000,
    "price_per_sqft": 6800,
    "sqft": 1588,
    "property_type": "apartment",
    "builder": "Aparna Constructions",
    "possession": "Ready to move",
    "lat": 17.4712,
    "lng": 78.3567,
    "tags": ["gated", "lake_view", "schools_nearby", "clubhouse"]
  },
  {
    "id": "hyd-002",
    "title": "Prestige High Fields",
    "city": "Hyderabad",
    "locality": "Nanakramguda",
    "bhk": 3,
    "price_inr": 12500000,
    "price_per_sqft": 7500,
    "sqft": 1667,
    "property_type": "apartment",
    "builder": "Prestige Group",
    "possession": "Ready to move",
    "lat": 17.4123,
    "lng": 78.3489,
    "tags": ["gated", "it_hub_nearby", "metro_nearby", "premium"]
  },
  {
    "id": "hyd-003",
    "title": "My Home Bhooja",
    "city": "Hyderabad",
    "locality": "HITEC City",
    "bhk": 2,
    "price_inr": 8900000,
    "price_per_sqft": 8200,
    "sqft": 1085,
    "property_type": "apartment",
    "builder": "My Home Constructions",
    "possession": "Ready to move",
    "lat": 17.4435,
    "lng": 78.3772,
    "tags": ["gated", "it_hub_nearby", "metro_nearby"]
  },
  {
    "id": "blr-016",
    "title": "Shriram Chirping Woods",
    "city": "Bangalore",
    "locality": "Brookfield",
    "bhk": 2,
    "price_inr": 6800000,
    "price_per_sqft": 7000,
    "sqft": 971,
    "property_type": "apartment",
    "builder": "Shriram Properties",
    "possession": "Ready to move",
    "lat": 12.956712,
    "lng": 77.718942,
    "tags": ["gated", "metro_nearby", "schools_nearby"]
  },
  {
    "id": "blr-017",
    "title": "Adarsh Palm Retreat",
    "city": "Bangalore",
    "locality": "Bellandur",
    "bhk": 3,
    "price_inr": 13500000,
    "price_per_sqft": 8500,
    "sqft": 1588,
    "property_type": "villa",
    "builder": "Adarsh Developers",
    "possession": "Ready to move",
    "lat": 12.922112,
    "lng": 77.685645,
    "tags": ["gated", "lake_view", "premium", "it_hub_nearby"]
  },
  {
    "id": "blr-018",
    "title": "DNR Casablanca",
    "city": "Bangalore",
    "locality": "Mahadevapura",
    "bhk": 3,
    "price_inr": 11200000,
    "price_per_sqft": 7200,
    "sqft": 1556,
    "property_type": "apartment",
    "builder": "DNR Group",
    "possession": "Ready to move",
    "lat": 12.981212,
    "lng": 77.694512,
    "tags": ["gated", "metro_nearby", "it_hub_nearby"]
  },
  {
    "id": "blr-019",
    "title": "Sobha City",
    "city": "Bangalore",
    "locality": "Thanisandra",
    "bhk": 3,
    "price_inr": 9800000,
    "price_per_sqft": 6600,
    "sqft": 1485,
    "property_type": "apartment",
    "builder": "Sobha Limited",
    "possession": "Ready to move",
    "lat": 13.061212,
    "lng": 77.628945,
    "tags": ["gated", "metro_nearby", "township", "schools_nearby"]
  },
  {
    "id": "blr-020",
    "title": "Purva Zenium",
    "city": "Bangalore",
    "locality": "Hennur",
    "bhk": 2,
    "price_inr": 6200000,
    "price_per_sqft": 5800,
    "sqft": 1069,
    "property_type": "apartment",
    "builder": "Puravankara",
    "possession": "Under construction",
    "lat": 13.035612,
    "lng": 77.648942,
    "tags": ["gated", "budget_friendly", "metro_nearby"]
  }
]
